{"status": "OK", "results": [{"geometry": {"location": {"lat": 51.9413183, "lng": -2.4983672}, "viewport": {"northeast": {"lat": 51.9426672802915, "lng": -2.497018219708498}, "southwest": {"lat": 51.9399693197085, "lng": -2.499716180291502}}, "location_type": "ROOFTOP"}, "formatted_address": "Tan House Cottage, Upton Bishop, Ross-on-Wye, Herefordshire HR9 7UP, UK", "place_id": "ChIJIav_7rGtcUgRBd_MP8po7c0", "address_components": [{"long_name": "Tan House Cottage", "types": ["premise"], "short_name": "Tan House Cottage"}, {"long_name": "Upton Bishop", "types": ["locality", "political"], "short_name": "Upton Bishop"}, {"long_name": "Ross-on-Wye", "types": ["postal_town"], "short_name": "Ross-on-Wye"}, {"long_name": "Herefordshire", "types": ["administrative_area_level_2", "political"], "short_name": "Herefordshire"}, {"long_name": "United Kingdom", "types": ["country", "political"], "short_name": "GB"}, {"long_name": "HR9 7UP", "types": ["postal_code"], "short_name": "HR9 7UP"}], "partial_match": true, "types": ["premise"]}, {"geometry": {"location_type": "GEOMETRIC_CENTER", "bounds": {"northeast": {"lat": 53.534451, "lng": -2.1181522}, "southwest": {"lat": 53.5339233, "lng": -2.1186992}}, "viewport": {"northeast": {"lat": 53.5355361302915, "lng": -2.117076719708499}, "southwest": {"lat": 53.5328381697085, "lng": -2.119774680291502}}, "location": {"lat": 53.5342203, "lng": -2.1182213}}, "formatted_address": "Tay Cl, Oldham, Oldham OL8 1HS, UK", "place_id": "ChIJZ7gTB3q3e0gR2pb7mIkFDoM", "address_components": [{"long_name": "Tay Close", "types": ["route"], "short_name": "Tay Cl"}, {"long_name": "Oldham", "types": ["locality", "political"], "short_name": "Oldham"}, {"long_name": "Oldham", "types": ["postal_town"], "short_name": "Oldham"}, {"long_name": "Greater Manchester", "types": ["administrative_area_level_2", "political"], "short_name": "Greater Manchester"}, {"long_name": "United Kingdom", "types": ["country", "political"], "short_name": "GB"}, {"long_name": "OL8 1HS", "types": ["postal_code"], "short_name": "OL8 1HS"}], "partial_match": true, "types": ["route"]}, {"geometry": {"location_type": "GEOMETRIC_CENTER", "bounds": {"northeast": {"lat": 53.1204045, "lng": -2.16414}, "southwest": {"lat": 53.1200056, "lng": -2.1652786}}, "viewport": {"northeast": {"lat": 53.1215540302915, "lng": -2.163360319708498}, "southwest": {"lat": 53.1188560697085, "lng": -2.166058280291502}}, "location": {"lat": 53.1203802, "lng": -2.1647075}}, "formatted_address": "Tay Cl, Biddulph, Stoke-on-Trent, Staffordshire ST8 7HW, UK", "place_id": "ChIJUTiDd3FEekgRMNOhlPIf39c", "address_components": [{"long_name": "Tay Close", "types": ["route"], "short_name": "Tay Cl"}, {"long_name": "Biddulph", "types": ["locality", "political"], "short_name": "Biddulph"}, {"long_name": "Stoke-on-Trent", "types": ["postal_town"], "short_name": "Stoke-on-Trent"}, {"long_name": "Staffordshire", "types": ["administrative_area_level_2", "political"], "short_name": "Staffordshire"}, {"long_name": "United Kingdom", "types": ["country", "political"], "short_name": "GB"}, {"long_name": "ST8 7HW", "types": ["postal_code"], "short_name": "ST8 7HW"}], "partial_match": true, "types": ["route"]}, {"geometry": {"location_type": "ROOFTOP", "bounds": {"northeast": {"lat": 52.309281, "lng": -1.4984573}, "southwest": {"lat": 52.3091454, "lng": -1.4986676}}, "viewport": {"northeast": {"lat": 52.3105621802915, "lng": -1.497213469708498}, "southwest": {"lat": 52.3078642197085, "lng": -1.499911430291502}}, "location": {"lat": 52.30921319999999, "lng": -1.4985624}}, "formatted_address": "Tan Cottage, Ladycroft, Cubbington, Leamington Spa, Warwickshire CV32 7NH, UK", "place_id": "ChIJi1qUMks0d0gRtZ_vrqX_sQY", "address_components": [{"long_name": "Tan Cottage", "types": ["premise"], "short_name": "Tan Cottage"}, {"long_name": "Ladycroft", "types": ["route"], "short_name": "Ladycroft"}, {"long_name": "Cubbington", "types": ["locality", "political"], "short_name": "Cubbington"}, {"long_name": "Leamington Spa", "types": ["postal_town"], "short_name": "Leamington Spa"}, {"long_name": "Warwickshire", "types": ["administrative_area_level_2", "political"], "short_name": "Warwickshire"}, {"long_name": "United Kingdom", "types": ["country", "political"], "short_name": "GB"}, {"long_name": "CV32 7NH", "types": ["postal_code"], "short_name": "CV32 7NH"}], "partial_match": true, "types": ["premise"]}, {"geometry": {"location_type": "ROOFTOP", "bounds": {"northeast": {"lat": 53.0243535, "lng": -2.2326557}, "southwest": {"lat": 53.0242814, "lng": -2.2328006}}, "viewport": {"northeast": {"lat": 53.02566643029149, "lng": -2.231379169708498}, "southwest": {"lat": 53.02296846970849, "lng": -2.234077130291502}}, "location": {"lat": 53.0243175, "lng": -2.2327282}}, "formatted_address": "Caretakers House Ta Centre, Liverpool Rd, Newcastle, Staffordshire ST5 9EA, UK", "place_id": "ChIJeWtKW_9nekgR96VrPiagZvw", "address_components": [{"long_name": "Caretakers House Ta Centre", "types": ["premise"], "short_name": "Caretakers House Ta Centre"}, {"long_name": "Liverpool Road", "types": ["route"], "short_name": "Liverpool Rd"}, {"long_name": "Newcastle-under-Lyme", "types": ["locality", "political"], "short_name": "Newcastle-under-Lyme"}, {"long_name": "Newcastle", "types": ["postal_town"], "short_name": "Newcastle"}, {"long_name": "Staffordshire", "types": ["administrative_area_level_2", "political"], "short_name": "Staffordshire"}, {"long_name": "United Kingdom", "types": ["country", "political"], "short_name": "GB"}, {"long_name": "ST5 9EA", "types": ["postal_code"], "short_name": "ST5 9EA"}], "partial_match": true, "types": ["premise"]}, {"geometry": {"location": {"lat": 51.8545074, "lng": -2.5553243}, "viewport": {"northeast": {"lat": 51.85585638029149, "lng": -2.553975319708498}, "southwest": {"lat": 51.85315841970849, "lng": -2.556673280291502}}, "location_type": "ROOFTOP"}, "formatted_address": "Tan House, Caudle Ln, Ruardean, Gloucestershire GL17 9TL, UK", "place_id": "ChIJY6f5TDiwcUgRVpnXw9ohIPM", "address_components": [{"long_name": "Tan House", "types": ["premise"], "short_name": "Tan House"}, {"long_name": "Caudle Lane", "types": ["route"], "short_name": "Caudle Ln"}, {"long_name": "Ruardean", "types": ["locality", "political"], "short_name": "Ruardean"}, {"long_name": "Ruardean", "types": ["postal_town"], "short_name": "Ruardean"}, {"long_name": "Gloucestershire", "types": ["administrative_area_level_2", "political"], "short_name": "Gloucestershire"}, {"long_name": "United Kingdom", "types": ["country", "political"], "short_name": "GB"}, {"long_name": "GL17 9TL", "types": ["postal_code"], "short_name": "GL17 9TL"}], "partial_match": true, "types": ["premise"]}]}