{"status": "OK", "results": [{"geometry": {"location_type": "APPROXIMATE", "bounds": {"northeast": {"lat": 50.9591806, "lng": 13.4003755}, "southwest": {"lat": 50.875046, "lng": 13.2689144}}, "viewport": {"northeast": {"lat": 50.9591806, "lng": 13.4003755}, "southwest": {"lat": 50.875046, "lng": 13.2689144}}, "location": {"lat": 50.9128283, "lng": 13.341727}}, "address_components": [{"long_name": "Freiberg", "types": ["locality", "political"], "short_name": "Freiberg"}, {"long_name": "Mittelsachsen", "types": ["administrative_area_level_3", "political"], "short_name": "Mittelsachsen"}, {"long_name": "Chemnitz", "types": ["administrative_area_level_2", "political"], "short_name": "C"}, {"long_name": "Saxony", "types": ["administrative_area_level_1", "political"], "short_name": "SN"}, {"long_name": "Germany", "types": ["country", "political"], "short_name": "DE"}], "place_id": "ChIJ1eRf0OJfp0cREO6IQsuxIQQ", "formatted_address": "Freiberg, Germany", "types": ["locality", "political"]}, {"geometry": {"location_type": "APPROXIMATE", "bounds": {"northeast": {"lat": 50.3328959, "lng": 12.2418095}, "southwest": {"lat": 50.32916669999999, "lng": 12.2306812}}, "viewport": {"northeast": {"lat": 50.3328959, "lng": 12.2418095}, "southwest": {"lat": 50.32916669999999, "lng": 12.2306812}}, "location": {"lat": 50.331288, "lng": 12.2360557}}, "address_components": [{"long_name": "Freiberg", "types": ["sublocality_level_1", "sublocality", "political"], "short_name": "Freiberg"}, {"long_name": "Adorf/Vogtland", "types": ["locality", "political"], "short_name": "Adorf/Vogtland"}, {"long_name": "Chemnitz", "types": ["administrative_area_level_2", "political"], "short_name": "C"}, {"long_name": "Sachsen", "types": ["administrative_area_level_1", "political"], "short_name": "SN"}, {"long_name": "Germany", "types": ["country", "political"], "short_name": "DE"}, {"long_name": "08626", "types": ["postal_code"], "short_name": "08626"}], "place_id": "ChIJUe2bTdzgoEcR5Yz1RLBCmGA", "formatted_address": "Freiberg, 08626 Adorf/Vogtland, Germany", "types": ["sublocality_level_1", "sublocality", "political"]}, {"geometry": {"location_type": "APPROXIMATE", "bounds": {"northeast": {"lat": 48.95034589999999, "lng": 9.228588799999999}, "southwest": {"lat": 48.9151031, "lng": 9.1514018}}, "viewport": {"northeast": {"lat": 48.95034589999999, "lng": 9.228588799999999}, "southwest": {"lat": 48.9151031, "lng": 9.1514018}}, "location": {"lat": 48.9334303, "lng": 9.1992433}}, "address_components": [{"long_name": "Freiberg", "types": ["locality", "political"], "short_name": "Freiberg"}, {"long_name": "Ludwigsburg", "types": ["administrative_area_level_3", "political"], "short_name": "LB"}, {"long_name": "Stuttgart", "types": ["administrative_area_level_2", "political"], "short_name": "S\u00fcd"}, {"long_name": "Baden-W\u00fcrttemberg", "types": ["administrative_area_level_1", "political"], "short_name": "BW"}, {"long_name": "Germany", "types": ["country", "political"], "short_name": "DE"}], "place_id": "ChIJSe66QTnSmUcRg8Nx8WsgEOE", "formatted_address": "Freiberg, Germany", "types": ["locality", "political"]}]}