{"status": "OK", "results": [{"geometry": {"location_type": "APPROXIMATE", "bounds": {"northeast": {"lat": 45.535689, "lng": 9.2903463}, "southwest": {"lat": 45.3897787, "lng": 9.065118199999999}}, "viewport": {"northeast": {"lat": 45.535689, "lng": 9.2903463}, "southwest": {"lat": 45.3897787, "lng": 9.065118199999999}}, "location": {"lat": 45.4654219, "lng": 9.1859243}}, "address_components": [{"long_name": "Milan", "types": ["locality", "political"], "short_name": "Milan"}, {"long_name": "Milan", "types": ["administrative_area_level_3", "political"], "short_name": "Milan"}, {"long_name": "Metropolitan City of Milan", "types": ["administrative_area_level_2", "political"], "short_name": "MI"}, {"long_name": "Lombardy", "types": ["administrative_area_level_1", "political"], "short_name": "Lombardy"}, {"long_name": "Italy", "types": ["country", "political"], "short_name": "IT"}], "place_id": "ChIJ53USP0nBhkcRjQ50xhPN_zw", "formatted_address": "Milan, Italy", "types": ["locality", "political"]}, {"geometry": {"location_type": "APPROXIMATE", "bounds": {"northeast": {"lat": 45.5933944, "lng": 9.575789799999999}, "southwest": {"lat": 45.59078909999999, "lng": 9.5711629}}, "viewport": {"northeast": {"lat": 45.5934407302915, "lng": 9.575789799999999}, "southwest": {"lat": 45.5907427697085, "lng": 9.5711629}}, "location": {"lat": 45.5919384, "lng": 9.5724801}}, "address_components": [{"long_name": "Milano", "types": ["locality", "political"], "short_name": "Milano"}, {"long_name": "Boltiere", "types": ["administrative_area_level_3", "political"], "short_name": "Boltiere"}, {"long_name": "Provincia di Bergamo", "types": ["administrative_area_level_2", "political"], "short_name": "BG"}, {"long_name": "Lombardia", "types": ["administrative_area_level_1", "political"], "short_name": "Lombardia"}, {"long_name": "Italy", "types": ["country", "political"], "short_name": "IT"}, {"long_name": "24040", "types": ["postal_code"], "short_name": "24040"}], "place_id": "ChIJ121EbmxMgUcR4wC0denczqk", "formatted_address": "24040 Milano, Italy", "types": ["locality", "political"]}, {"geometry": {"location_type": "APPROXIMATE", "bounds": {"northeast": {"lat": 45.8096695, "lng": 9.5788256}, "southwest": {"lat": 45.8069895, "lng": 9.574141899999999}}, "viewport": {"northeast": {"lat": 45.8096784802915, "lng": 9.5788256}, "southwest": {"lat": 45.8069805197085, "lng": 9.574141899999999}}, "location": {"lat": 45.8082694, "lng": 9.5760489}}, "address_components": [{"long_name": "Milan", "types": ["locality", "political"], "short_name": "Milan"}, {"long_name": "Berbenno", "types": ["administrative_area_level_3", "political"], "short_name": "Berbenno"}, {"long_name": "Province of Bergamo", "types": ["administrative_area_level_2", "political"], "short_name": "BG"}, {"long_name": "Lombardy", "types": ["administrative_area_level_1", "political"], "short_name": "Lombardy"}, {"long_name": "Italy", "types": ["country", "political"], "short_name": "IT"}, {"long_name": "24030", "types": ["postal_code"], "short_name": "24030"}], "place_id": "ChIJCaK_NAAAhEcRrLiZ-eSNILc", "formatted_address": "24030 Milan, Italy", "types": ["locality", "political"]}]}