{"status": "OK", "results": [{"geometry": {"location_type": "APPROXIMATE", "bounds": {"northeast": {"lat": 48.6198944, "lng": 10.6272841}, "southwest": {"lat": 48.53507519999999, "lng": 10.4414699}}, "viewport": {"northeast": {"lat": 48.6198944, "lng": 10.6272841}, "southwest": {"lat": 48.53507519999999, "lng": 10.4414699}}, "location": {"lat": 48.5790918, "lng": 10.4940239}}, "address_components": [{"long_name": "Dillingen", "types": ["locality", "political"], "short_name": "Dillingen"}, {"long_name": "Dillingen a.d.Donau", "types": ["administrative_area_level_3", "political"], "short_name": "Dillingen a.d.Donau"}, {"long_name": "Swabia", "types": ["administrative_area_level_2", "political"], "short_name": "Swabia"}, {"long_name": "Bavaria", "types": ["administrative_area_level_1", "political"], "short_name": "BY"}, {"long_name": "Germany", "types": ["country", "political"], "short_name": "DE"}], "place_id": "ChIJD2YubWs1mUcRwOyL161IHgQ", "formatted_address": "Dillingen, Germany", "types": ["locality", "political"]}, {"geometry": {"location_type": "APPROXIMATE", "bounds": {"northeast": {"lat": 49.3961718, "lng": 6.778759}, "southwest": {"lat": 49.3377709, "lng": 6.6895587}}, "viewport": {"northeast": {"lat": 49.3961718, "lng": 6.778759}, "southwest": {"lat": 49.3377709, "lng": 6.6895587}}, "location": {"lat": 49.3630559, "lng": 6.726753200000001}}, "address_components": [{"long_name": "Dillingen", "types": ["locality", "political"], "short_name": "Dillingen"}, {"long_name": "Saarlouis", "types": ["administrative_area_level_3", "political"], "short_name": "Saarlouis"}, {"long_name": "Saarland", "types": ["administrative_area_level_1", "political"], "short_name": "SL"}, {"long_name": "Germany", "types": ["country", "political"], "short_name": "DE"}], "place_id": "ChIJ8egLV5mnlUcRsDncENXUIgQ", "formatted_address": "Dillingen, Germany", "types": ["locality", "political"]}, {"geometry": {"location": {"lat": 49.3719809, "lng": 6.766535800000001}, "viewport": {"northeast": {"lat": 49.3733298802915, "lng": 6.767884780291503}, "southwest": {"lat": 49.3706319197085, "lng": 6.765186819708499}}, "location_type": "APPROXIMATE"}, "address_components": [{"long_name": "Dillingen", "types": ["sublocality_level_1", "sublocality", "political"], "short_name": "Dillingen"}, {"long_name": "Dillingen/Saar", "types": ["locality", "political"], "short_name": "Dillingen/Saar"}, {"long_name": "Saarland", "types": ["administrative_area_level_1", "political"], "short_name": "SL"}, {"long_name": "Germany", "types": ["country", "political"], "short_name": "DE"}, {"long_name": "66763", "types": ["postal_code"], "short_name": "66763"}], "place_id": "ChIJNzyh4f-mlUcR4nCqiw86xs0", "formatted_address": "Dillingen, 66763 Dillingen/Saar, Germany", "types": ["sublocality_level_1", "sublocality", "political"]}]}