{"status": "OK", "results": [{"geometry": {"location_type": "APPROXIMATE", "bounds": {"northeast": {"lat": 44.959722, "lng": 4.9783899}, "southwest": {"lat": 44.8868601, "lng": 4.854378100000001}}, "viewport": {"northeast": {"lat": 44.959722, "lng": 4.9783899}, "southwest": {"lat": 44.8868601, "lng": 4.854378100000001}}, "location": {"lat": 44.933393, "lng": 4.89236}}, "address_components": [{"long_name": "Valence", "types": ["locality", "political"], "short_name": "Valence"}, {"long_name": "Drome", "types": ["administrative_area_level_2", "political"], "short_name": "Drome"}, {"long_name": "Rhone-Alpes", "types": ["administrative_area_level_1", "political"], "short_name": "RA"}, {"long_name": "France", "types": ["country", "political"], "short_name": "FR"}], "place_id": "ChIJxyEyxplX9UcRgLW_5CqrCAQ", "formatted_address": "Valence, France", "types": ["locality", "political"]}, {"geometry": {"location_type": "APPROXIMATE", "bounds": {"northeast": {"lat": 39.5073225, "lng": -0.2914778}, "southwest": {"lat": 39.308248, "lng": -0.4315448}}, "viewport": {"northeast": {"lat": 39.5073225, "lng": -0.2914778}, "southwest": {"lat": 39.308248, "lng": -0.4315448}}, "location": {"lat": 39.4699075, "lng": -0.3762881}}, "address_components": [{"long_name": "Valencia", "types": ["locality", "political"], "short_name": "Valencia"}, {"long_name": "Valencia", "types": ["administrative_area_level_4", "political"], "short_name": "Valencia"}, {"long_name": "L'Horta de Val\u00e8ncia", "types": ["administrative_area_level_3", "political"], "short_name": "L'Horta de Val\u00e8ncia"}, {"long_name": "Valencia", "types": ["administrative_area_level_2", "political"], "short_name": "V"}, {"long_name": "Valencian Community", "types": ["administrative_area_level_1", "political"], "short_name": "Valencian Community"}, {"long_name": "Spain", "types": ["country", "political"], "short_name": "ES"}], "place_id": "ChIJb7Dv8ExPYA0ROR1_HwFRo7Q", "formatted_address": "Valencia, Valencia, Spain", "types": ["locality", "political"]}, {"geometry": {"location_type": "APPROXIMATE", "bounds": {"northeast": {"lat": 44.1425691, "lng": 0.941867}, "southwest": {"lat": 44.069216, "lng": 0.8689570999999999}}, "viewport": {"northeast": {"lat": 44.1425691, "lng": 0.941867}, "southwest": {"lat": 44.069216, "lng": 0.8689570999999999}}, "location": {"lat": 44.108057, "lng": 0.890241}}, "address_components": [{"long_name": "Valence", "types": ["locality", "political"], "short_name": "Valence"}, {"long_name": "Tarn-et-Garonne", "types": ["administrative_area_level_2", "political"], "short_name": "Tarn-et-Garonne"}, {"long_name": "Midi-Pyr\u00e9n\u00e9es", "types": ["administrative_area_level_1", "political"], "short_name": "Midi-Pyr\u00e9n\u00e9es"}, {"long_name": "France", "types": ["country", "political"], "short_name": "FR"}], "place_id": "ChIJ2QuQDuK_qxIRQNE7L5z2BgQ", "formatted_address": "Valence, France", "types": ["locality", "political"]}]}