{"status": "OK", "results": [{"geometry": {"location": {"lat": 44.115755, "lng": 1.078784}, "viewport": {"northeast": {"lat": 44.1237652, "lng": 1.0947914}, "southwest": {"lat": 44.1077437, "lng": 1.0627766}}, "location_type": "APPROXIMATE"}, "address_components": [{"long_name": "Charenton", "types": ["sublocality_level_1", "sublocality", "political"], "short_name": "Charenton"}, {"long_name": "Moissac", "types": ["locality", "political"], "short_name": "Moissac"}, {"long_name": "Tarn-et-Garonne", "types": ["administrative_area_level_2", "political"], "short_name": "Tarn-et-Garonne"}, {"long_name": "Midi-Pyr\u00e9n\u00e9es", "types": ["administrative_area_level_1", "political"], "short_name": "Midi-Pyr\u00e9n\u00e9es"}, {"long_name": "France", "types": ["country", "political"], "short_name": "FR"}, {"long_name": "82200", "types": ["postal_code"], "short_name": "82200"}], "place_id": "ChIJ-asCQRONqxIRDuSLfVF6SYc", "formatted_address": "Charenton, 82200 Moissac, France", "types": ["sublocality_level_1", "sublocality", "political"]}, {"geometry": {"location": {"lat": 47.2702079, "lng": 2.983408}, "viewport": {"northeast": {"lat": 47.2715568802915, "lng": 2.984756980291502}, "southwest": {"lat": 47.2688589197085, "lng": 2.982059019708498}}, "location_type": "APPROXIMATE"}, "address_components": [{"long_name": "Charenton", "types": ["sublocality_level_1", "sublocality", "political"], "short_name": "Charenton"}, {"long_name": "Pouilly-sur-Loire", "types": ["locality", "political"], "short_name": "Pouilly-sur-Loire"}, {"long_name": "Ni\u00e8vre", "types": ["administrative_area_level_2", "political"], "short_name": "Ni\u00e8vre"}, {"long_name": "Bourgogne", "types": ["administrative_area_level_1", "political"], "short_name": "Bourgogne"}, {"long_name": "France", "types": ["country", "political"], "short_name": "FR"}, {"long_name": "58150", "types": ["postal_code"], "short_name": "58150"}], "place_id": "ChIJV0rsOjkY8EcRgLaNWjfOCQo", "formatted_address": "Charenton, 58150 Pouilly-sur-Loire, France", "types": ["sublocality_level_1", "sublocality", "political"]}, {"geometry": {"location": {"lat": 46.524208, "lng": 0.479626}, "viewport": {"northeast": {"lat": 46.5255569802915, "lng": 0.480974980291502}, "southwest": {"lat": 46.52285901970851, "lng": 0.478277019708498}}, "location_type": "APPROXIMATE"}, "address_components": [{"long_name": "Charenton", "types": ["sublocality_level_1", "sublocality", "political"], "short_name": "Charenton"}, {"long_name": "Savigny-L\u00e9vescault", "types": ["locality", "political"], "short_name": "Savigny-L\u00e9vescault"}, {"long_name": "Vienne", "types": ["administrative_area_level_2", "political"], "short_name": "Vienne"}, {"long_name": "Poitou-Charentes", "types": ["administrative_area_level_1", "political"], "short_name": "PCh"}, {"long_name": "France", "types": ["country", "political"], "short_name": "FR"}, {"long_name": "86800", "types": ["postal_code"], "short_name": "86800"}], "place_id": "ChIJaU8U6vm3_UcRQSCjX5PTBSY", "formatted_address": "Charenton, 86800 Savigny-L\u00e9vescault, France", "types": ["sublocality_level_1", "sublocality", "political"]}, {"geometry": {"location": {"lat": 43.138706, "lng": 6.334848}, "viewport": {"northeast": {"lat": 43.1400549802915, "lng": 6.336196980291502}, "southwest": {"lat": 43.1373570197085, "lng": 6.333499019708499}}, "location_type": "APPROXIMATE"}, "address_components": [{"long_name": "Charenton", "types": ["colloquial_area", "political"], "short_name": "Charenton"}, {"long_name": "Var", "types": ["administrative_area_level_2", "political"], "short_name": "Var"}, {"long_name": "Provence-Alpes-C\u00f4te d'Azur", "types": ["administrative_area_level_1", "political"], "short_name": "Provence-Alpes-C\u00f4te d'Azur"}, {"long_name": "France", "types": ["country", "political"], "short_name": "FR"}, {"long_name": "83230", "types": ["postal_code"], "short_name": "83230"}], "place_id": "ChIJCSTswegtyRIRNNNJZtpuvHs", "formatted_address": "Charenton, 83230, France", "types": ["colloquial_area", "political"]}, {"geometry": {"location_type": "GEOMETRIC_CENTER", "bounds": {"northeast": {"lat": 44.42992599999999, "lng": 5.018559}, "southwest": {"lat": 44.429134, "lng": 5.016168}}, "viewport": {"northeast": {"lat": 44.4308789802915, "lng": 5.018712480291502}, "southwest": {"lat": 44.4281810197085, "lng": 5.016014519708498}}, "location": {"lat": 44.429141, "lng": 5.017709}}, "address_components": [{"long_name": "Charenton", "types": ["route"], "short_name": "Charenton"}, {"long_name": "Montbrison-sur-Lez", "types": ["locality", "political"], "short_name": "Montbrison-sur-Lez"}, {"long_name": "Dr\u00f4me", "types": ["administrative_area_level_2", "political"], "short_name": "Dr\u00f4me"}, {"long_name": "Rh\u00f4ne-Alpes", "types": ["administrative_area_level_1", "political"], "short_name": "RA"}, {"long_name": "France", "types": ["country", "political"], "short_name": "FR"}, {"long_name": "26770", "types": ["postal_code"], "short_name": "26770"}], "place_id": "ChIJf6btbNh8tRIRLJ5kfDGC9VU", "formatted_address": "Charenton, 26770 Montbrison-sur-Lez, France", "types": ["route"]}, {"geometry": {"location_type": "GEOMETRIC_CENTER", "bounds": {"northeast": {"lat": 47.383192, "lng": 1.2729029}, "southwest": {"lat": 47.380213, "lng": 1.2682119}}, "viewport": {"northeast": {"lat": 47.383192, "lng": 1.2729029}, "southwest": {"lat": 47.380213, "lng": 1.2682119}}, "location": {"lat": 47.380661, "lng": 1.270419}}, "address_components": [{"long_name": "Charenton", "types": ["route"], "short_name": "Charenton"}, {"long_name": "Pontlevoy", "types": ["locality", "political"], "short_name": "Pontlevoy"}, {"long_name": "Loir-et-Cher", "types": ["administrative_area_level_2", "political"], "short_name": "Loir-et-Cher"}, {"long_name": "Centre", "types": ["administrative_area_level_1", "political"], "short_name": "Centre"}, {"long_name": "France", "types": ["country", "political"], "short_name": "FR"}, {"long_name": "41400", "types": ["postal_code"], "short_name": "41400"}], "place_id": "ChIJOxIfismr_EcRu9ALQDwKZnY", "formatted_address": "Charenton, 41400 Pontlevoy, France", "types": ["route"]}]}