{"status": "OK", "results": [{"geometry": {"location_type": "APPROXIMATE", "bounds": {"northeast": {"lat": 46.9766711, "lng": -1.9357601}, "southwest": {"lat": 46.887823, "lng": -2.029377}}, "viewport": {"northeast": {"lat": 46.9766711, "lng": -1.9357601}, "southwest": {"lat": 46.887823, "lng": -2.029377}}, "location": {"lat": 46.902738, "lng": -1.998738}}, "address_components": [{"long_name": "Saint-Gervais", "types": ["locality", "political"], "short_name": "Saint-Gervais"}, {"long_name": "Vendee", "types": ["administrative_area_level_2", "political"], "short_name": "Vendee"}, {"long_name": "Pays de la Loire", "types": ["administrative_area_level_1", "political"], "short_name": "Pays de la Loire"}, {"long_name": "France", "types": ["country", "political"], "short_name": "FR"}], "place_id": "ChIJSyW0FSAHBUgRWAXLSJZC_E4", "formatted_address": "Saint-Gervais, France", "types": ["locality", "political"]}, {"geometry": {"location_type": "APPROXIMATE", "bounds": {"northeast": {"lat": 45.0299611, "lng": -0.443063}, "southwest": {"lat": 45.002837, "lng": -0.491025}}, "viewport": {"northeast": {"lat": 45.0299611, "lng": -0.443063}, "southwest": {"lat": 45.002837, "lng": -0.491025}}, "location": {"lat": 45.016861, "lng": -0.464529}}, "address_components": [{"long_name": "Saint-Gervais", "types": ["locality", "political"], "short_name": "Saint-Gervais"}, {"long_name": "Gironde", "types": ["administrative_area_level_2", "political"], "short_name": "Gironde"}, {"long_name": "Aquitaine", "types": ["administrative_area_level_1", "political"], "short_name": "Aquitaine"}, {"long_name": "France", "types": ["country", "political"], "short_name": "FR"}], "place_id": "ChIJdxkZ4hQoAEgRkNcWSBdlBgQ", "formatted_address": "Saint-Gervais, France", "types": ["locality", "political"]}, {"geometry": {"location_type": "APPROXIMATE", "bounds": {"northeast": {"lat": 49.185821, "lng": 1.798895}, "southwest": {"lat": 49.145256, "lng": 1.717129}}, "viewport": {"northeast": {"lat": 49.185821, "lng": 1.798895}, "southwest": {"lat": 49.145256, "lng": 1.717129}}, "location": {"lat": 49.1686484, "lng": 1.7689332}}, "address_components": [{"long_name": "Saint-Gervais", "types": ["locality", "political"], "short_name": "Saint-Gervais"}, {"long_name": "Val-d'Oise", "types": ["administrative_area_level_2", "political"], "short_name": "Val-d'Oise"}, {"long_name": "\u00cele-de-France", "types": ["administrative_area_level_1", "political"], "short_name": "\u00cele-de-France"}, {"long_name": "France", "types": ["country", "political"], "short_name": "FR"}], "place_id": "ChIJK5prRZ7C5kcRwC2LaMOCCwQ", "formatted_address": "Saint-Gervais, France", "types": ["locality", "political"]}, {"geometry": {"location_type": "APPROXIMATE", "bounds": {"northeast": {"lat": 45.21229109999999, "lng": 5.527689}, "southwest": {"lat": 45.1638559, "lng": 5.463761}}, "viewport": {"northeast": {"lat": 45.21229109999999, "lng": 5.527689}, "southwest": {"lat": 45.1638559, "lng": 5.463761}}, "location": {"lat": 45.2017809, "lng": 5.481682999999999}}, "address_components": [{"long_name": "Saint-Gervais", "types": ["locality", "political"], "short_name": "Saint-Gervais"}, {"long_name": "Isere", "types": ["administrative_area_level_2", "political"], "short_name": "Isere"}, {"long_name": "Rhone-Alpes", "types": ["administrative_area_level_1", "political"], "short_name": "RA"}, {"long_name": "France", "types": ["country", "political"], "short_name": "FR"}], "place_id": "ChIJWW0uLODqikcR8Gu-5CqrCAQ", "formatted_address": "Saint-Gervais, France", "types": ["locality", "political"]}, {"geometry": {"location_type": "APPROXIMATE", "bounds": {"northeast": {"lat": 44.216156, "lng": 4.6031869}, "southwest": {"lat": 44.173656, "lng": 4.554034}}, "viewport": {"northeast": {"lat": 44.216156, "lng": 4.6031869}, "southwest": {"lat": 44.173656, "lng": 4.554034}}, "location": {"lat": 44.185382, "lng": 4.573707}}, "address_components": [{"long_name": "Saint-Gervais", "types": ["locality", "political"], "short_name": "Saint-Gervais"}, {"long_name": "Gard", "types": ["administrative_area_level_2", "political"], "short_name": "Gard"}, {"long_name": "Languedoc-Roussillon", "types": ["administrative_area_level_1", "political"], "short_name": "Languedoc-Roussillon"}, {"long_name": "France", "types": ["country", "political"], "short_name": "FR"}], "place_id": "ChIJr37x7m-ltRIRDlfvdLCmeMA", "formatted_address": "Saint-Gervais, France", "types": ["locality", "political"]}, {"geometry": {"location_type": "GEOMETRIC_CENTER", "bounds": {"northeast": {"lat": 45.786772, "lng": 0.7654774}, "southwest": {"lat": 45.783299, "lng": 0.755814}}, "viewport": {"northeast": {"lat": 45.786772, "lng": 0.7654774}, "southwest": {"lat": 45.783299, "lng": 0.755814}}, "location": {"lat": 45.7850589, "lng": 0.7602899999999999}}, "address_components": [{"long_name": "Saint-Gervais", "types": ["route"], "short_name": "Saint-Gervais"}, {"long_name": "Videix", "types": ["locality", "political"], "short_name": "Videix"}, {"long_name": "Haute-Vienne", "types": ["administrative_area_level_2", "political"], "short_name": "Haute-Vienne"}, {"long_name": "Limousin", "types": ["administrative_area_level_1", "political"], "short_name": "Limousin"}, {"long_name": "France", "types": ["country", "political"], "short_name": "FR"}, {"long_name": "87600", "types": ["postal_code"], "short_name": "87600"}], "place_id": "ChIJ73pGnjPw_kcRXWplf2f_AB8", "formatted_address": "Saint-Gervais, 87600 Videix, France", "types": ["route"]}, {"geometry": {"location_type": "GEOMETRIC_CENTER", "bounds": {"northeast": {"lat": 46.9223225, "lng": 6.6344105}, "southwest": {"lat": 46.9166932, "lng": 6.6311651}}, "viewport": {"northeast": {"lat": 46.9223225, "lng": 6.6344105}, "southwest": {"lat": 46.9166932, "lng": 6.6311651}}, "location": {"lat": 46.919689, "lng": 6.632522700000001}}, "address_components": [{"long_name": "Saint-Gervais", "types": ["route"], "short_name": "Saint-Gervais"}, {"long_name": "Couvet", "types": ["locality", "political"], "short_name": "Couvet"}, {"long_name": "Val-de-Travers", "types": ["administrative_area_level_2", "political"], "short_name": "Val-de-Travers"}, {"long_name": "Neuch\u00e2tel", "types": ["administrative_area_level_1", "political"], "short_name": "NE"}, {"long_name": "Switzerland", "types": ["country", "political"], "short_name": "CH"}, {"long_name": "2108", "types": ["postal_code"], "short_name": "2108"}], "place_id": "ChIJT1eMZjvCjUcRVvSSmq_n1-M", "formatted_address": "Saint-Gervais, 2108 Couvet, Switzerland", "types": ["route"]}, {"geometry": {"location_type": "GEOMETRIC_CENTER", "bounds": {"northeast": {"lat": 49.1973022, "lng": 0.404354}, "southwest": {"lat": 49.1940669, "lng": 0.3974588}}, "viewport": {"northeast": {"lat": 49.1973022, "lng": 0.404354}, "southwest": {"lat": 49.1940669, "lng": 0.3974588}}, "location": {"lat": 49.194887, "lng": 0.401485}}, "address_components": [{"long_name": "Saint-Gervais", "types": ["route"], "short_name": "Saint-Gervais"}, {"long_name": "Asnieres", "types": ["locality", "political"], "short_name": "Asnieres"}, {"long_name": "Eure", "types": ["administrative_area_level_2", "political"], "short_name": "Eure"}, {"long_name": "Haute-Normandie", "types": ["administrative_area_level_1", "political"], "short_name": "Haute-Normandie"}, {"long_name": "France", "types": ["country", "political"], "short_name": "FR"}, {"long_name": "27260", "types": ["postal_code"], "short_name": "27260"}], "place_id": "ChIJhbA-mtC54UcRi0ZKWpmf3_o", "formatted_address": "Saint-Gervais, 27260 Asnieres, France", "types": ["route"]}, {"geometry": {"location_type": "GEOMETRIC_CENTER", "bounds": {"northeast": {"lat": 43.94629339999999, "lng": 1.6298139}, "southwest": {"lat": 43.94294379999999, "lng": 1.6275529}}, "viewport": {"northeast": {"lat": 43.94629339999999, "lng": 1.630032380291502}, "southwest": {"lat": 43.94294379999999, "lng": 1.627334419708498}}, "location": {"lat": 43.9443962, "lng": 1.6298139}}, "address_components": [{"long_name": "Saint-Gervais", "types": ["route"], "short_name": "Saint-Gervais"}, {"long_name": "Montdurausse", "types": ["locality", "political"], "short_name": "Montdurausse"}, {"long_name": "Tarn", "types": ["administrative_area_level_2", "political"], "short_name": "Tarn"}, {"long_name": "Midi-Pyr\u00e9n\u00e9es", "types": ["administrative_area_level_1", "political"], "short_name": "Midi-Pyr\u00e9n\u00e9es"}, {"long_name": "France", "types": ["country", "political"], "short_name": "FR"}, {"long_name": "81630", "types": ["postal_code"], "short_name": "81630"}], "place_id": "ChIJQ5SRBCU7rBIRYzg1ZMB0nzs", "formatted_address": "Saint-Gervais, 81630 Montdurausse, France", "types": ["route"]}, {"geometry": {"location_type": "GEOMETRIC_CENTER", "bounds": {"northeast": {"lat": 44.2475006, "lng": 1.4217062}, "southwest": {"lat": 44.2466544, "lng": 1.419172}}, "viewport": {"northeast": {"lat": 44.24842648029151, "lng": 1.421788080291502}, "southwest": {"lat": 44.24572851970851, "lng": 1.419090119708498}}, "location": {"lat": 44.2471819, "lng": 1.4202207}}, "address_components": [{"long_name": "Saint-Gervais", "types": ["route"], "short_name": "Saint-Gervais"}, {"long_name": "Castelnau-Montratier", "types": ["locality", "political"], "short_name": "Castelnau-Montratier"}, {"long_name": "Lot", "types": ["administrative_area_level_2", "political"], "short_name": "Lot"}, {"long_name": "Midi-Pyr\u00e9n\u00e9es", "types": ["administrative_area_level_1", "political"], "short_name": "Midi-Pyr\u00e9n\u00e9es"}, {"long_name": "France", "types": ["country", "political"], "short_name": "FR"}, {"long_name": "46170", "types": ["postal_code"], "short_name": "46170"}], "place_id": "ChIJV941x41lrBIRbD75Z8oSANg", "formatted_address": "Saint-Gervais, 46170 Castelnau-Montratier, France", "types": ["route"]}, {"geometry": {"location_type": "GEOMETRIC_CENTER", "bounds": {"northeast": {"lat": 44.7483925, "lng": 2.6844037}, "southwest": {"lat": 44.73671, "lng": 2.675434000000001}}, "viewport": {"northeast": {"lat": 44.7483925, "lng": 2.6844037}, "southwest": {"lat": 44.73671, "lng": 2.675434000000001}}, "location": {"lat": 44.74250869999999, "lng": 2.679993}}, "address_components": [{"long_name": "Saint-Gervais", "types": ["route"], "short_name": "Saint-Gervais"}, {"long_name": "Saint-Symphorien-de-Th\u00e9ni\u00e8res", "types": ["locality", "political"], "short_name": "Saint-Symphorien-de-Th\u00e9ni\u00e8res"}, {"long_name": "Aveyron", "types": ["administrative_area_level_2", "political"], "short_name": "Aveyron"}, {"long_name": "Midi-Pyr\u00e9n\u00e9es", "types": ["administrative_area_level_1", "political"], "short_name": "Midi-Pyr\u00e9n\u00e9es"}, {"long_name": "France", "types": ["country", "political"], "short_name": "FR"}, {"long_name": "12460", "types": ["postal_code"], "short_name": "12460"}], "place_id": "ChIJ-xeB6Aq8shIRJo0E7HoUx48", "formatted_address": "Saint-Gervais, 12460 Saint-Symphorien-de-Th\u00e9ni\u00e8res, France", "types": ["route"]}, {"geometry": {"location_type": "GEOMETRIC_CENTER", "bounds": {"northeast": {"lat": 43.88480800000001, "lng": 7.478691899999999}, "southwest": {"lat": 43.8797849, "lng": 7.460618599999999}}, "viewport": {"northeast": {"lat": 43.88480800000001, "lng": 7.478691899999999}, "southwest": {"lat": 43.8797849, "lng": 7.460618599999999}}, "location": {"lat": 43.882333, "lng": 7.471221}}, "address_components": [{"long_name": "Saint-Gervais", "types": ["route"], "short_name": "Saint-Gervais"}, {"long_name": "Sospel", "types": ["locality", "political"], "short_name": "Sospel"}, {"long_name": "Alpes-Maritimes", "types": ["administrative_area_level_2", "political"], "short_name": "Alpes-Maritimes"}, {"long_name": "Provence-Alpes-C\u00f4te d'Azur", "types": ["administrative_area_level_1", "political"], "short_name": "Provence-Alpes-C\u00f4te d'Azur"}, {"long_name": "France", "types": ["country", "political"], "short_name": "FR"}, {"long_name": "06380", "types": ["postal_code"], "short_name": "06380"}], "place_id": "ChIJox-ikA-VzRIRNo45i0D-U1E", "formatted_address": "Saint-Gervais, 06380 Sospel, France", "types": ["route"]}, {"geometry": {"location_type": "GEOMETRIC_CENTER", "bounds": {"northeast": {"lat": 45.501348, "lng": 0.251948}, "southwest": {"lat": 45.501039, "lng": 0.2503929}}, "viewport": {"northeast": {"lat": 45.5025424802915, "lng": 0.252519430291502}, "southwest": {"lat": 45.4998445197085, "lng": 0.2498214697084979}}, "location": {"lat": 45.501275, "lng": 0.251292}}, "address_components": [{"long_name": "Saint-Gervais", "types": ["route"], "short_name": "Saint-Gervais"}, {"long_name": "Magnac-Lavalette-Villars", "types": ["locality", "political"], "short_name": "Magnac-Lavalette-Villars"}, {"long_name": "Charente", "types": ["administrative_area_level_2", "political"], "short_name": "Charente"}, {"long_name": "Poitou-Charentes", "types": ["administrative_area_level_1", "political"], "short_name": "PCh"}, {"long_name": "France", "types": ["country", "political"], "short_name": "FR"}, {"long_name": "16320", "types": ["postal_code"], "short_name": "16320"}], "place_id": "ChIJB6jLoRbJ_0cRtU__O4agwws", "formatted_address": "Saint-Gervais, 16320 Magnac-Lavalette-Villars, France", "types": ["route"]}, {"geometry": {"location_type": "GEOMETRIC_CENTER", "bounds": {"northeast": {"lat": 43.12860149999999, "lng": 6.092631}, "southwest": {"lat": 43.12607329999999, "lng": 6.087692}}, "viewport": {"northeast": {"lat": 43.1286863802915, "lng": 6.092631}, "southwest": {"lat": 43.1259884197085, "lng": 6.087692}}, "location": {"lat": 43.12706559999999, "lng": 6.0917365}}, "address_components": [{"long_name": "Saint-Gervais", "types": ["route"], "short_name": "Saint-Gervais"}, {"long_name": "Hy\u00e8res", "types": ["locality", "political"], "short_name": "Hy\u00e8res"}, {"long_name": "Var", "types": ["administrative_area_level_2", "political"], "short_name": "Var"}, {"long_name": "Provence-Alpes-C\u00f4te d'Azur", "types": ["administrative_area_level_1", "political"], "short_name": "Provence-Alpes-C\u00f4te d'Azur"}, {"long_name": "France", "types": ["country", "political"], "short_name": "FR"}, {"long_name": "83400", "types": ["postal_code"], "short_name": "83400"}], "place_id": "ChIJ8eJhxl8iyRIRKN7pNk5OW3U", "formatted_address": "Saint-Gervais, 83400 Hy\u00e8res, France", "types": ["route"]}, {"geometry": {"location_type": "GEOMETRIC_CENTER", "bounds": {"northeast": {"lat": 44.2460992, "lng": 1.425784}, "southwest": {"lat": 44.2459159, "lng": 1.4246716}}, "viewport": {"northeast": {"lat": 44.2473565302915, "lng": 1.426576780291502}, "southwest": {"lat": 44.2446585697085, "lng": 1.423878819708498}}, "location": {"lat": 44.2460146, "lng": 1.425185}}, "address_components": [{"long_name": "Saint-Gervais", "types": ["route"], "short_name": "Saint-Gervais"}, {"long_name": "Saint-Paul-de-Loubressac", "types": ["locality", "political"], "short_name": "Saint-Paul-de-Loubressac"}, {"long_name": "Lot", "types": ["administrative_area_level_2", "political"], "short_name": "Lot"}, {"long_name": "Midi-Pyr\u00e9n\u00e9es", "types": ["administrative_area_level_1", "political"], "short_name": "Midi-Pyr\u00e9n\u00e9es"}, {"long_name": "France", "types": ["country", "political"], "short_name": "FR"}, {"long_name": "46170", "types": ["postal_code"], "short_name": "46170"}], "place_id": "ChIJ5f1SIPNlrBIR98qwxe5dCVc", "formatted_address": "Saint-Gervais, 46170 Saint-Paul-de-Loubressac, France", "types": ["route"]}, {"geometry": {"location_type": "GEOMETRIC_CENTER", "bounds": {"northeast": {"lat": 44.92404699999999, "lng": 2.8457309}, "southwest": {"lat": 44.9228916, "lng": 2.844458}}, "viewport": {"northeast": {"lat": 44.9248182802915, "lng": 2.846443430291502}, "southwest": {"lat": 44.9221203197085, "lng": 2.843745469708498}}, "location": {"lat": 44.9234896, "lng": 2.8454055}}, "address_components": [{"long_name": "Saint-Gervais", "types": ["route"], "short_name": "Saint-Gervais"}, {"long_name": "Pierrefort", "types": ["locality", "political"], "short_name": "Pierrefort"}, {"long_name": "Cantal", "types": ["administrative_area_level_2", "political"], "short_name": "Cantal"}, {"long_name": "Auvergne", "types": ["administrative_area_level_1", "political"], "short_name": "Auvergne"}, {"long_name": "France", "types": ["country", "political"], "short_name": "FR"}, {"long_name": "15230", "types": ["postal_code"], "short_name": "15230"}], "place_id": "ChIJ225LYpzLshIRDxqg8I26iD4", "formatted_address": "Saint-Gervais, 15230 Pierrefort, France", "types": ["route"]}, {"geometry": {"location": {"lat": 43.7384739, "lng": 5.70184}, "viewport": {"northeast": {"lat": 43.73982288029149, "lng": 5.703188980291502}, "southwest": {"lat": 43.73712491970849, "lng": 5.700491019708497}}, "location_type": "APPROXIMATE"}, "address_components": [{"long_name": "Saint-Gervais", "types": ["colloquial_area", "political"], "short_name": "Saint-Gervais"}, {"long_name": "Vaucluse", "types": ["administrative_area_level_2", "political"], "short_name": "Vaucluse"}, {"long_name": "Provence-Alpes-C\u00f4te d'Azur", "types": ["administrative_area_level_1", "political"], "short_name": "Provence-Alpes-C\u00f4te d'Azur"}, {"long_name": "France", "types": ["country", "political"], "short_name": "FR"}, {"long_name": "84120", "types": ["postal_code"], "short_name": "84120"}], "place_id": "ChIJrU7UEpEsyhIRoU8wkl5YPmw", "formatted_address": "Saint-Gervais, 84120, France", "types": ["colloquial_area", "political"]}, {"geometry": {"location_type": "GEOMETRIC_CENTER", "bounds": {"northeast": {"lat": 45.8935446, "lng": 6.674770199999999}, "southwest": {"lat": 45.8824469, "lng": 6.6421727}}, "viewport": {"northeast": {"lat": 45.8935446, "lng": 6.674770199999999}, "southwest": {"lat": 45.8824469, "lng": 6.6421727}}, "location": {"lat": 45.8908932, "lng": 6.654396999999999}}, "formatted_address": "Route de Saint-Gervais, Combloux, France", "place_id": "ChIJr6NO29tXiUcRDN3FeSEJemM", "address_components": [{"long_name": "Route de Saint-Gervais", "types": ["route"], "short_name": "Route de Saint-Gervais"}, {"long_name": "Combloux", "types": ["locality", "political"], "short_name": "Combloux"}, {"long_name": "Haute-Savoie", "types": ["administrative_area_level_2", "political"], "short_name": "Haute-Savoie"}, {"long_name": "Rh\u00f4ne-Alpes", "types": ["administrative_area_level_1", "political"], "short_name": "RA"}, {"long_name": "France", "types": ["country", "political"], "short_name": "FR"}], "partial_match": true, "types": ["route"]}, {"geometry": {"location_type": "GEOMETRIC_CENTER", "bounds": {"northeast": {"lat": 45.9105607, "lng": 6.7190297}, "southwest": {"lat": 45.9027293, "lng": 6.703704}}, "viewport": {"northeast": {"lat": 45.9105607, "lng": 6.7190297}, "southwest": {"lat": 45.9027293, "lng": 6.703704}}, "location": {"lat": 45.9070285, "lng": 6.7109652}}, "formatted_address": "Route de Saint-Gervais, France", "place_id": "ChIJcRX1vPpWiUcRl18ixap3DD0", "address_components": [{"long_name": "Route de Saint-Gervais", "types": ["route"], "short_name": "Route de Saint-Gervais"}, {"long_name": "Haute-Savoie", "types": ["administrative_area_level_2", "political"], "short_name": "Haute-Savoie"}, {"long_name": "Rh\u00f4ne-Alpes", "types": ["administrative_area_level_1", "political"], "short_name": "RA"}, {"long_name": "France", "types": ["country", "political"], "short_name": "FR"}], "partial_match": true, "types": ["route"]}, {"geometry": {"location_type": "GEOMETRIC_CENTER", "bounds": {"northeast": {"lat": 48.7130861, "lng": -0.532544}, "southwest": {"lat": 48.712737, "lng": -0.532777}}, "viewport": {"northeast": {"lat": 48.7142605302915, "lng": -0.5313115197084979}, "southwest": {"lat": 48.7115625697085, "lng": -0.534009480291502}}, "location": {"lat": 48.7129201, "lng": -0.532777}}, "address_components": [{"long_name": "Saint-Gervais", "types": ["route"], "short_name": "Saint-Gervais"}, {"long_name": "Messei", "types": ["locality", "political"], "short_name": "Messei"}, {"long_name": "Orne", "types": ["administrative_area_level_2", "political"], "short_name": "Orne"}, {"long_name": "Basse-Normandie", "types": ["administrative_area_level_1", "political"], "short_name": "Basse-Normandie"}, {"long_name": "France", "types": ["country", "political"], "short_name": "FR"}, {"long_name": "61440", "types": ["postal_code"], "short_name": "61440"}], "place_id": "ChIJPUQhnvSHCUgR3pdfn2ROq54", "formatted_address": "Saint-Gervais, 61440 Messei, France", "types": ["route"]}]}