{"status": "OK", "results": [{"geometry": {"location_type": "GEOMETRIC_CENTER", "bounds": {"northeast": {"lat": 46.388876, "lng": 5.1257149}, "southwest": {"lat": 46.3876987, "lng": 5.1245782}}, "viewport": {"northeast": {"lat": 46.3896363302915, "lng": 5.126495530291503}, "southwest": {"lat": 46.3869383697085, "lng": 5.123797569708498}}, "location": {"lat": 46.3881619, "lng": 5.1250969}}, "address_components": [{"long_name": "La Correrie", "types": ["route"], "short_name": "La Correrie"}, {"long_name": "Lescheroux", "types": ["locality", "political"], "short_name": "Lescheroux"}, {"long_name": "Ain", "types": ["administrative_area_level_2", "political"], "short_name": "Ain"}, {"long_name": "Rh\u00f4ne-Alpes", "types": ["administrative_area_level_1", "political"], "short_name": "RA"}, {"long_name": "France", "types": ["country", "political"], "short_name": "FR"}, {"long_name": "01560", "types": ["postal_code"], "short_name": "01560"}], "place_id": "ChIJR9LSwpBH80cRL1ZbgL3JfP4", "formatted_address": "La Correrie, 01560 Lescheroux, France", "types": ["route"]}, {"geometry": {"location": {"lat": 49.767715, "lng": 3.951595}, "viewport": {"northeast": {"lat": 49.76906398029149, "lng": 3.952943980291502}, "southwest": {"lat": 49.76636601970849, "lng": 3.950246019708497}}, "location_type": "APPROXIMATE"}, "address_components": [{"long_name": "La Correrie", "types": ["colloquial_area", "political"], "short_name": "La Correrie"}, {"long_name": "Aisne", "types": ["administrative_area_level_2", "political"], "short_name": "Aisne"}, {"long_name": "Picardie", "types": ["administrative_area_level_1", "political"], "short_name": "Picardie"}, {"long_name": "France", "types": ["country", "political"], "short_name": "FR"}, {"long_name": "02140", "types": ["postal_code"], "short_name": "02140"}], "place_id": "ChIJLTTpMaDE6UcR52lIIVs90Lw", "formatted_address": "La Correrie, 02140, France", "types": ["colloquial_area", "political"]}, {"geometry": {"location": {"lat": 45.8614419, "lng": 5.471977}, "viewport": {"northeast": {"lat": 45.86279088029149, "lng": 5.473325980291502}, "southwest": {"lat": 45.8600929197085, "lng": 5.470628019708498}}, "location_type": "APPROXIMATE"}, "address_components": [{"long_name": "La Correrie", "types": ["sublocality_level_1", "sublocality", "political"], "short_name": "La Correrie"}, {"long_name": "B\u00e9nonces", "types": ["locality", "political"], "short_name": "B\u00e9nonces"}, {"long_name": "Ain", "types": ["administrative_area_level_2", "political"], "short_name": "Ain"}, {"long_name": "Rh\u00f4ne-Alpes", "types": ["administrative_area_level_1", "political"], "short_name": "RA"}, {"long_name": "France", "types": ["country", "political"], "short_name": "FR"}, {"long_name": "01470", "types": ["postal_code"], "short_name": "01470"}], "place_id": "ChIJ_-FKqz1Ei0cR--fc8SWZDPU", "formatted_address": "La Correrie, 01470 B\u00e9nonces, France", "types": ["sublocality_level_1", "sublocality", "political"]}, {"geometry": {"location": {"lat": 45.6100009, "lng": 6.108003999999999}, "viewport": {"northeast": {"lat": 45.61134988029149, "lng": 6.109352980291502}, "southwest": {"lat": 45.60865191970849, "lng": 6.106655019708497}}, "location_type": "APPROXIMATE"}, "address_components": [{"long_name": "La Correrie", "types": ["sublocality_level_1", "sublocality", "political"], "short_name": "La Correrie"}, {"long_name": "Aillon-le-Jeune", "types": ["locality", "political"], "short_name": "Aillon-le-Jeune"}, {"long_name": "Savoie", "types": ["administrative_area_level_2", "political"], "short_name": "Savoie"}, {"long_name": "Rh\u00f4ne-Alpes", "types": ["administrative_area_level_1", "political"], "short_name": "RA"}, {"long_name": "France", "types": ["country", "political"], "short_name": "FR"}, {"long_name": "73340", "types": ["postal_code"], "short_name": "73340"}], "place_id": "ChIJU0sX6l66i0cRA2RZ56sjp7s", "formatted_address": "La Correrie, 73340 Aillon-le-Jeune, France", "types": ["sublocality_level_1", "sublocality", "political"]}]}