{"status": "OK", "results": [{"geometry": {"location_type": "APPROXIMATE", "bounds": {"northeast": {"lat": 48.4685153, "lng": 10.0428302}, "southwest": {"lat": 48.3066626, "lng": 9.8420594}}, "viewport": {"northeast": {"lat": 48.4685153, "lng": 10.0428302}, "southwest": {"lat": 48.3066626, "lng": 9.8420594}}, "location": {"lat": 48.4010822, "lng": 9.987607599999999}}, "address_components": [{"long_name": "Ulm", "types": ["locality", "political"], "short_name": "Ulm"}, {"long_name": "T\u00fcbingen", "types": ["administrative_area_level_2", "political"], "short_name": "T\u00dc"}, {"long_name": "Baden-W\u00fcrttemberg", "types": ["administrative_area_level_1", "political"], "short_name": "BW"}, {"long_name": "Germany", "types": ["country", "political"], "short_name": "DE"}], "place_id": "ChIJ_Qs1mGlkmUcRkH3fpbdrHwQ", "formatted_address": "Ulm, Germany", "types": ["locality", "political"]}, {"geometry": {"location": {"lat": 48.5787766, "lng": 8.049576}, "viewport": {"northeast": {"lat": 48.5801255802915, "lng": 8.050924980291501}, "southwest": {"lat": 48.5774276197085, "lng": 8.048227019708497}}, "location_type": "APPROXIMATE"}, "address_components": [{"long_name": "Ulm", "types": ["sublocality_level_1", "sublocality", "political"], "short_name": "Ulm"}, {"long_name": "Renchen", "types": ["locality", "political"], "short_name": "Renchen"}, {"long_name": "Freiburg", "types": ["administrative_area_level_2", "political"], "short_name": "Freiburg"}, {"long_name": "Baden-W\u00fcrttemberg", "types": ["administrative_area_level_1", "political"], "short_name": "BW"}, {"long_name": "Germany", "types": ["country", "political"], "short_name": "DE"}, {"long_name": "77871", "types": ["postal_code"], "short_name": "77871"}], "place_id": "ChIJKxVRNHPXlkcR0x2wZsqmAw8", "formatted_address": "Ulm, 77871 Renchen, Germany", "types": ["sublocality_level_1", "sublocality", "political"]}]}