{"status": "OK", "results": [{"geometry": {"location_type": "APPROXIMATE", "bounds": {"northeast": {"lat": 49.4967525, "lng": 11.9143678}, "southwest": {"lat": 49.4116884, "lng": 11.776817}}, "viewport": {"northeast": {"lat": 49.4967525, "lng": 11.9143678}, "southwest": {"lat": 49.4116884, "lng": 11.776817}}, "location": {"lat": 49.4403198, "lng": 11.8633445}}, "address_components": [{"long_name": "Amberg", "types": ["locality", "political"], "short_name": "AM"}, {"long_name": "Amberg-Sulzbach", "types": ["administrative_area_level_3", "political"], "short_name": "Amberg-Sulzbach"}, {"long_name": "Upper Palatinate", "types": ["administrative_area_level_2", "political"], "short_name": "Upper Palatinate"}, {"long_name": "Bavaria", "types": ["administrative_area_level_1", "political"], "short_name": "BY"}, {"long_name": "Germany", "types": ["country", "political"], "short_name": "DE"}], "place_id": "ChIJLYKqaDEqoEcRJlnBZB5odU8", "formatted_address": "Amberg, Germany", "types": ["locality", "political"]}, {"geometry": {"location_type": "APPROXIMATE", "bounds": {"northeast": {"lat": 48.0989016, "lng": 10.7080636}, "southwest": {"lat": 48.0474192, "lng": 10.663798}}, "viewport": {"northeast": {"lat": 48.0989016, "lng": 10.7080636}, "southwest": {"lat": 48.0474192, "lng": 10.663798}}, "location": {"lat": 48.0613444, "lng": 10.6818503}}, "address_components": [{"long_name": "Amberg", "types": ["locality", "political"], "short_name": "Amberg"}, {"long_name": "Unterallg\u00e4u", "types": ["administrative_area_level_3", "political"], "short_name": "Unterallg\u00e4u"}, {"long_name": "Swabia", "types": ["administrative_area_level_2", "political"], "short_name": "Swabia"}, {"long_name": "Bavaria", "types": ["administrative_area_level_1", "political"], "short_name": "BY"}, {"long_name": "Germany", "types": ["country", "political"], "short_name": "DE"}], "place_id": "ChIJBTsFtKoQnEcRIi70NAM36ek", "formatted_address": "Amberg, Germany", "types": ["locality", "political"]}]}