{"status": "OK", "results": [{"geometry": {"location_type": "APPROXIMATE", "bounds": {"northeast": {"lat": 59.2781549, "lng": 11.0351918}, "southwest": {"lat": 59.17455330000001, "lng": 10.8650352}}, "viewport": {"northeast": {"lat": 59.2781549, "lng": 11.0351918}, "southwest": {"lat": 59.17455330000001, "lng": 10.8650352}}, "location": {"lat": 59.22053689999999, "lng": 10.9347012}}, "formatted_address": "Fredrikstad, Norway", "place_id": "ChIJ27zJC94CREYR_ASCM21iuu4", "address_components": [{"long_name": "Fredrikstad", "types": ["locality", "political"], "short_name": "Fredrikstad"}, {"long_name": "Fredrikstad", "types": ["administrative_area_level_2", "political"], "short_name": "Fredrikstad"}, {"long_name": "\u00d8stfold", "types": ["administrative_area_level_1", "political"], "short_name": "\u00d8stfold"}, {"long_name": "Norway", "types": ["country", "political"], "short_name": "NO"}], "partial_match": true, "types": ["locality", "political"]}, {"geometry": {"location_type": "GEOMETRIC_CENTER", "bounds": {"northeast": {"lat": 57.02301809999999, "lng": 9.900096099999999}, "southwest": {"lat": 57.0197055, "lng": 9.894343899999999}}, "viewport": {"northeast": {"lat": 57.02301809999999, "lng": 9.900096099999999}, "southwest": {"lat": 57.0197055, "lng": 9.894343899999999}}, "location": {"lat": 57.0213146, "lng": 9.8976656}}, "formatted_address": "Fredrikstadvej, 9200 Aalborg SV, Denmark", "place_id": "ChIJn7AUGKozSUYRaG33s2X1ycM", "address_components": [{"long_name": "Fredrikstadvej", "types": ["route"], "short_name": "Fredrikstadvej"}, {"long_name": "Aalborg SV", "types": ["sublocality_level_1", "sublocality", "political"], "short_name": "Aalborg SV"}, {"long_name": "Aalborg", "types": ["locality", "political"], "short_name": "Aalborg"}, {"long_name": "Aalborg Municipality", "types": ["administrative_area_level_2", "political"], "short_name": "Aalborg Municipality"}, {"long_name": "Denmark", "types": ["country", "political"], "short_name": "DK"}, {"long_name": "9200", "types": ["postal_code"], "short_name": "9200"}], "partial_match": true, "types": ["route"]}, {"geometry": {"location": {"lat": 59.20902, "lng": 10.95078}, "viewport": {"northeast": {"lat": 59.21036898029151, "lng": 10.9521289802915}, "southwest": {"lat": 59.20767101970849, "lng": 10.9494310197085}}, "location_type": "APPROXIMATE"}, "formatted_address": "Fredrikstad, Fredrikstad, Norway", "place_id": "ChIJPWFXCCUDREYR3I99rKmQ-uM", "address_components": [{"long_name": "Fredrikstad", "types": ["point_of_interest", "establishment"], "short_name": "Fredrikstad"}, {"long_name": "Fredrikstad", "types": ["locality", "political"], "short_name": "Fredrikstad"}, {"long_name": "Fredrikstad", "types": ["administrative_area_level_2", "political"], "short_name": "Fredrikstad"}, {"long_name": "\u00d8stfold", "types": ["administrative_area_level_1", "political"], "short_name": "\u00d8stfold"}, {"long_name": "Norway", "types": ["country", "political"], "short_name": "NO"}], "partial_match": true, "types": ["train_station", "transit_station", "point_of_interest", "establishment"]}]}