{"status": "OK", "results": [{"geometry": {"location_type": "APPROXIMATE", "bounds": {"northeast": {"lat": 52.4840472, "lng": 4.8626613}, "southwest": {"lat": 52.4177651, "lng": 4.7835627}}, "viewport": {"northeast": {"lat": 52.4840472, "lng": 4.8626613}, "southwest": {"lat": 52.4177651, "lng": 4.7835627}}, "location": {"lat": 52.4420399, "lng": 4.8291992}}, "formatted_address": "Zaandam, Netherlands", "place_id": "ChIJE1HfVdn8xUcRRlFArFBLweI", "address_components": [{"long_name": "Zaandam", "types": ["locality", "political"], "short_name": "Zaandam"}, {"long_name": "Zaanstad", "types": ["administrative_area_level_2", "political"], "short_name": "Zaanstad"}, {"long_name": "North Holland", "types": ["administrative_area_level_1", "political"], "short_name": "NH"}, {"long_name": "Netherlands", "types": ["country", "political"], "short_name": "NL"}], "partial_match": true, "types": ["locality", "political"]}, {"geometry": {"location_type": "GEOMETRIC_CENTER", "bounds": {"northeast": {"lat": 55.59323699999999, "lng": 12.5863751}, "southwest": {"lat": 55.592037, "lng": 12.5798422}}, "viewport": {"northeast": {"lat": 55.5939859802915, "lng": 12.5863751}, "southwest": {"lat": 55.5912880197085, "lng": 12.5798422}}, "location": {"lat": 55.592579, "lng": 12.5829365}}, "formatted_address": "Zaandam Alle, 2791 Drag\u00f8r, Denmark", "place_id": "ChIJIf6D8NKqU0YRFvzg5WGegOo", "address_components": [{"long_name": "Zaandam Alle", "types": ["route"], "short_name": "Zaandam Alle"}, {"long_name": "Drag\u00f8r", "types": ["locality", "political"], "short_name": "Drag\u00f8r"}, {"long_name": "T\u00e5rnby Municipality", "types": ["administrative_area_level_2", "political"], "short_name": "T\u00e5rnby Municipality"}, {"long_name": "Denmark", "types": ["country", "political"], "short_name": "DK"}, {"long_name": "2791", "types": ["postal_code"], "short_name": "2791"}], "partial_match": true, "types": ["route"]}, {"geometry": {"location_type": "GEOMETRIC_CENTER", "bounds": {"northeast": {"lat": 52.44304469999999, "lng": 4.8568717}, "southwest": {"lat": 52.4423792, "lng": 4.856067599999999}}, "viewport": {"northeast": {"lat": 52.44406093029149, "lng": 4.857818630291502}, "southwest": {"lat": 52.44136296970849, "lng": 4.855120669708497}}, "location": {"lat": 52.44283369999999, "lng": 4.8564506}}, "formatted_address": "Zaandam, 1511 Oostzaan, Netherlands", "place_id": "ChIJ0UaydEj9xUcRchiGNqtk08Q", "address_components": [{"long_name": "Zaandam", "types": ["route"], "short_name": "Zaandam"}, {"long_name": "Oostzaan", "types": ["locality", "political"], "short_name": "Oostzaan"}, {"long_name": "Oostzaan", "types": ["administrative_area_level_2", "political"], "short_name": "Oostzaan"}, {"long_name": "Noord-Holland", "types": ["administrative_area_level_1", "political"], "short_name": "NH"}, {"long_name": "Netherlands", "types": ["country", "political"], "short_name": "NL"}, {"long_name": "1511", "types": ["postal_code_prefix", "postal_code"], "short_name": "1511"}], "partial_match": true, "types": ["route"]}, {"geometry": {"location": {"lat": 52.43842799999999, "lng": 4.813816}, "viewport": {"northeast": {"lat": 52.43977698029149, "lng": 4.815164980291502}, "southwest": {"lat": 52.4370790197085, "lng": 4.812467019708499}}, "location_type": "APPROXIMATE"}, "formatted_address": "Zaandam, 1506 Zaandam, Netherlands", "place_id": "ChIJ0W9R-s38xUcRii6a-7UrNZU", "address_components": [{"long_name": "Zaandam", "types": ["point_of_interest", "establishment"], "short_name": "Zaandam"}, {"long_name": "Zaandam", "types": ["locality", "political"], "short_name": "Zaandam"}, {"long_name": "Zaanstad", "types": ["administrative_area_level_2", "political"], "short_name": "Zaanstad"}, {"long_name": "Noord-Holland", "types": ["administrative_area_level_1", "political"], "short_name": "NH"}, {"long_name": "Netherlands", "types": ["country", "political"], "short_name": "NL"}, {"long_name": "1506", "types": ["postal_code_prefix", "postal_code"], "short_name": "1506"}], "partial_match": true, "types": ["train_station", "transit_station", "point_of_interest", "establishment"]}]}