{"status": "OK", "results": [{"geometry": {"location_type": "APPROXIMATE", "bounds": {"northeast": {"lat": 44.8746839, "lng": 11.6641086}, "southwest": {"lat": 44.7977949, "lng": 11.5487829}}, "viewport": {"northeast": {"lat": 44.8746839, "lng": 11.6641086}, "southwest": {"lat": 44.7977949, "lng": 11.5487829}}, "location": {"lat": 44.8381237, "lng": 11.619787}}, "address_components": [{"long_name": "Ferrara", "types": ["locality", "political"], "short_name": "Ferrara"}, {"long_name": "Ferrara", "types": ["administrative_area_level_3", "political"], "short_name": "Ferrara"}, {"long_name": "Province of Ferrara", "types": ["administrative_area_level_2", "political"], "short_name": "FE"}, {"long_name": "Emilia-Romagna", "types": ["administrative_area_level_1", "political"], "short_name": "Emilia-Romagna"}, {"long_name": "Italy", "types": ["country", "political"], "short_name": "IT"}], "place_id": "ChIJ3REr3gtOfkcRLitxU655Ozw", "formatted_address": "Ferrara, Province of Ferrara, Italy", "types": ["locality", "political"]}, {"geometry": {"location_type": "APPROXIMATE", "bounds": {"northeast": {"lat": 44.9043181, "lng": 12.0068839}, "southwest": {"lat": 44.9028237, "lng": 12.0020969}}, "viewport": {"northeast": {"lat": 44.9049198802915, "lng": 12.0068839}, "southwest": {"lat": 44.9022219197085, "lng": 12.0020969}}, "location": {"lat": 44.9032411, "lng": 12.0048752}}, "address_components": [{"long_name": "Ferrara", "types": ["locality", "political"], "short_name": "Ferrara"}, {"long_name": "Jolanda di Savoia", "types": ["administrative_area_level_3", "political"], "short_name": "Jolanda di Savoia"}, {"long_name": "Provincia di Ferrara", "types": ["administrative_area_level_2", "political"], "short_name": "FE"}, {"long_name": "Emilia-Romagna", "types": ["administrative_area_level_1", "political"], "short_name": "Emilia-Romagna"}, {"long_name": "Italy", "types": ["country", "political"], "short_name": "IT"}, {"long_name": "44037", "types": ["postal_code"], "short_name": "44037"}], "place_id": "ChIJN0LDGFthfkcRFJSZFQ2bByY", "formatted_address": "44037 Ferrara FE, Italy", "types": ["locality", "political"]}]}